[
  {
    "id": "58578f8f13af1c6c77410588",
    "categories": [
      {
        "id": 13034,
        "name": "Caf√©",
        "icon": {
          "prefix": "https://ss3.4sqi.net/img/categories_v2/food/cafe_",
          "suffix": ".png"
        }
      },
      {
        "id": 13035,
        "name": "Coffee Shop",
        "icon": {
          "prefix": "https://ss3.4sqi.net/img/categories_v2/food/coffeeshop_",
          "suffix": ".png"
        }
      }
    ],
    "chains": [],
    "distance": 26326,
    "geocodes": {
      "main": {
        "latitude": 29.66889,
        "longitude": -95.584513
      }
    },
    "location": {
      "address": "11735 Spring Grove Dr",
      "country": "US",
      "cross_street": "",
      "dma": "Houston",
      "locality": "Houston",
      "neighborhood": ["Alief"],
      "postcode": "77099",
      "region": "TX"
    },
    "name": "Brendas Coffee Shop & Brenda's Coffees",
    "related_places": {},
    "timezone": "America/Chicago"
  },
  {
    "id": "5ef1d659635040000757a84e",
    "categories": [
      {
        "id": 10004,
        "name": "Art Gallery",
        "icon": {
          "prefix": "https://ss3.4sqi.net/img/categories_v2/arts_entertainment/artgallery_",
          "suffix": ".png"
        }
      }
    ],
    "chains": [],
    "distance": 30373,
    "geocodes": {
      "main": {
        "latitude": 29.781914,
        "longitude": -96.156768
      }
    },
    "location": {
      "address": "203 Fowlkes St",
      "country": "US",
      "cross_street": "",
      "dma": "Houston",
      "locality": "Sealy",
      "postcode": "77474",
      "region": "TX"
    },
    "name": "Studio Blend Gallery & Coffee Shop",
    "related_places": {},
    "timezone": "America/Chicago"
  },
  {
    "id": "4af5974ef964a5200dfa21e3",
    "categories": [
      {
        "id": 13065,
        "name": "Restaurant",
        "icon": {
          "prefix": "https://ss3.4sqi.net/img/categories_v2/food/default_",
          "suffix": ".png"
        }
      }
    ],
    "chains": [],
    "distance": 8074,
    "geocodes": {
      "main": {
        "latitude": 29.73378371623813,
        "longitude": -95.76318349786753
      }
    },
    "location": {
      "address": "22765 Westheimer Pkwy",
      "country": "US",
      "cross_street": "Westheimer Parkway & Peek Road",
      "dma": "Houston",
      "locality": "Katy",
      "neighborhood": ["Eldridge"],
      "postcode": "77450",
      "region": "TX"
    },
    "name": "Kosmos Coffee - Embedd",
    "related_places": {},
    "timezone": "America/Chicago"
  },
  {
    "id": "4d29f4746e27a143abaa2924",
    "categories": [
      {
        "id": 13035,
        "name": "Coffee Shop",
        "icon": {
          "prefix": "https://ss3.4sqi.net/img/categories_v2/food/coffeeshop_",
          "suffix": ".png"
        }
      }
    ],
    "chains": [],
    "distance": 9725,
    "geocodes": {
      "main": {
        "latitude": 29.7443032264709,
        "longitude": -95.7468152046204
      }
    },
    "location": {
      "address": "2265 S Mason Rd",
      "country": "US",
      "dma": "Houston",
      "locality": "Katy",
      "neighborhood": ["Eldridge"],
      "postcode": "77450",
      "region": "TX"
    },
    "name": "Holy Grounds Coffee Shop & Bookstore",
    "related_places": {},
    "timezone": "America/Chicago"
  },
  {
    "id": "4c9b630a80958cfab8f44ad4",
    "categories": [],
    "chains": [],
    "distance": 12188,
    "geocodes": {
      "main": {
        "latitude": 29.77430444,
        "longitude": -95.72952148
      }
    },
    "location": {
      "address": "20701 Kingsland Blvd",
      "address_extended": "Ste 102",
      "country": "US",
      "cross_street": "",
      "dma": "Houston",
      "locality": "Katy",
      "neighborhood": ["Eldridge"],
      "postcode": "77450",
      "region": "TX"
    },
    "name": "Funky monkey Coffee shop",
    "related_places": {},
    "timezone": "America/Chicago"
  },
  {
    "id": "51b0b174498e859ad8f1354d",
    "categories": [
      {
        "id": 13035,
        "name": "Coffee Shop",
        "icon": {
          "prefix": "https://ss3.4sqi.net/img/categories_v2/food/coffeeshop_",
          "suffix": ".png"
        }
      },
      {
        "id": 13065,
        "name": "Restaurant",
        "icon": {
          "prefix": "https://ss3.4sqi.net/img/categories_v2/food/default_",
          "suffix": ".png"
        }
      }
    ],
    "chains": [],
    "distance": 12517,
    "geocodes": {
      "main": {
        "latitude": 29.791479110717773,
        "longitude": -95.9582290649414
      }
    },
    "location": {
      "address": "1238 FM 359 Rd",
      "country": "US",
      "cross_street": "",
      "dma": "Houston",
      "locality": "Brookshire",
      "postcode": "77423",
      "region": "TX"
    },
    "name": "Awakening",
    "related_places": {},
    "timezone": "America/Chicago"
  },
  {
    "id": "4f32b46c19836c91c7f19781",
    "categories": [
      {
        "id": 13035,
        "name": "Coffee Shop",
        "icon": {
          "prefix": "https://ss3.4sqi.net/img/categories_v2/food/coffeeshop_",
          "suffix": ".png"
        }
      },
      {
        "id": 13065,
        "name": "Restaurant",
        "icon": {
          "prefix": "https://ss3.4sqi.net/img/categories_v2/food/default_",
          "suffix": ".png"
        }
      }
    ],
    "chains": [],
    "distance": 22665,
    "geocodes": {
      "front_door": {
        "latitude": 29.778552,
        "longitude": -95.617665
      },
      "main": {
        "latitude": 29.7781925201416,
        "longitude": -95.61759185791016
      }
    },
    "location": {
      "address": "840 N Eldridge Pkwy",
      "country": "US",
      "dma": "Houston",
      "locality": "Houston",
      "neighborhood": ["Memorial"],
      "postcode": "77079",
      "region": "TX"
    },
    "name": "Elix Coffee Shop",
    "related_places": {},
    "timezone": "America/Chicago"
  }
]
